"categoria","centroide_lat","centroide_lon","fuente","id","nombre","nombre_completo","provincia_id","provincia_interseccion","provincia_nombre"
"Partido",-37.9646159068483,-60.2482821323384,"IGN","06014","Adolfo Gonzales Chaves","Partido de Adolfo Gonzales Chaves","06",0.0125815079288771,"Buenos Aires"
"Departamento",-31.2902983724746,-58.2378696898985,"IGN","30015","Concordia","Departamento Concordia","30",0.0414681664516468,"Entre Ríos"
"Departamento",-30.9924267798293,-58.8918600477175,"IGN","30035","Federal","Departamento Federal","30",0.0657426173552007,"Entre Ríos"
"Departamento",-33.0223490410459,-58.7858051710614,"IGN","30056","Gualeguaychú","Departamento Gualeguaychú","30",0.0970757725759829,"Entre Ríos"
"Departamento",-33.6249961546235,-58.9338958542555,"IGN","30063","Islas del Ibicuy","Departamento Islas del Ibicuy","30",0.0641372927357608,"Entre Ríos"
"Departamento",-32.7839424597941,-60.2180700308372,"IGN","30105","Victoria","Departamento Victoria","30",0.08535097955251,"Entre Ríos"
"Departamento",-32.228040549074,-60.5239335893593,"IGN","30021","Diamante","Departamento Diamante","30",0.03422446464709,"Entre Ríos"
"Departamento",-32.4477599400377,-58.5842252100111,"IGN","30098","Uruguay","Departamento Uruguay","30",0.0656693954597871,"Entre Ríos"
"Departamento",-31.6952294494901,-60.0411744815271,"IGN","30084","Paraná","Departamento Paraná","30",0.0648976911507347,"Entre Ríos"
"Partido",-35.676806451923,-59.7026607444531,"IGN","06707","Saladillo","Partido de Saladillo","06",0.0087272407383685,"Buenos Aires"
"Partido",-36.015826657022,-59.1764609497072,"IGN","06455","Las Flores","Partido de Las Flores","06",0.0108187309918714,"Buenos Aires"
"Partido",-34.1928173894529,-60.7880234647739,"IGN","06686","Rojas","Partido de Rojas","06",0.00652704312649808,"Buenos Aires"
"Partido",-34.3286828340822,-58.7711786108511,"IGN","06252","Escobar","Partido de Escobar","06",0.000955034967498567,"Buenos Aires"
"Partido",-34.511853162718,-58.7776345982883,"IGN","06412","José C. Paz","Partido de José C. Paz","06",0.000159523784368258,"Buenos Aires"
"Partido",-38.5841892126256,-62.1694174494415,"IGN","06056","Bahía Blanca","Partido de Bahía Blanca","06",0.0076287302296,"Buenos Aires"
"Partido",-34.2207575658705,-59.5194434817548,"IGN","06735","San Antonio de Areco","Partido de San Antonio de Areco","06",0.00273098396262856,"Buenos Aires"
"Partido",-36.886933208215,-57.5861191040468,"IGN","06511","Maipú","Partido de Maipú","06",0.00852590817145907,"Buenos Aires"
"Partido",-38.2026277127362,-58.0718053725136,"IGN","06280","General Alvarado","Partido de General Alvarado","06",0.00542289153650628,"Buenos Aires"
"Partido",-37.9656831422541,-57.743028347627,"IGN","06357","General Pueyrredón","Partido de General Pueyrredón","06",0.00485616159292092,"Buenos Aires"
"Partido",-37.4986405981654,-57.6432660560016,"IGN","06518","Mar Chiquita","Partido de Mar Chiquita","06",0.0101928457530162,"Buenos Aires"
"Partido",-37.3670719558785,-57.0633978822493,"IGN","06868","Villa Gesell","Partido de Villa Gesell","06",0.000541777106644209,"Buenos Aires"
"Partido",-37.1110742904936,-56.8702834122236,"IGN","06644","Pinamar","Partido de Pinamar","06",0.0002156207651597,"Buenos Aires"
"Partido",-36.650750377237,-56.9410029895247,"IGN","06336","General Lavalle","Partido de General Lavalle","06",0.00882829392925035,"Buenos Aires"
"Partido",-36.6971678213727,-56.7159402751909,"IGN","06420","La Costa","Partido de La Costa","06",0.000764027583219186,"Buenos Aires"
"Partido",-35.1851030703307,-57.6861279818118,"IGN","06505","Magdalena","Partido de Magdalena","06",0.00592850064090218,"Buenos Aires"
"Departamento",-29.9995030631702,-58.7949968561603,"IGN","18175","Sauce","Departamento Sauce","18",0.0282988986710765,"Corrientes"
"Partido",-34.52653142362,-58.5044865130649,"IGN","06861","Vicente López","Partido de Vicente López","06",0.000109553053877661,"Buenos Aires"
"Departamento",-25.4471786730855,-65.5805831392571,"IGN","66098","La Viña","Departamento La Viña","66",0.0130169439826571,"Salta"
"Partido",-36.5721944489319,-58.9441413666159,"IGN","06672","Rauch","Partido de Rauch","06",0.0140638609551262,"Buenos Aires"
"Departamento",-25.4252109663753,-64.5880714654829,"IGN","66112","Metán","Departamento Metán","66",0.0341706113610445,"Salta"
"Departamento",-25.5643165283563,-66.4548727525442,"IGN","66119","Molinos","Departamento Molinos","66",0.0241553887647224,"Salta"
"Departamento",-27.2556537688374,-60.6799749172166,"IGN","22112","O'Higgins","Departamento O'Higgins","22",0.0158188618965095,"Chaco"
"Partido",-34.6106807864965,-58.8108985084565,"IGN","06560","Moreno","Partido de Moreno","06",0.000592812574517563,"Buenos Aires"
"Partido",-34.7703481015398,-58.6254456945004,"IGN","06427","La Matanza","Partido de La Matanza","06",0.00104421888100573,"Buenos Aires"
"Partido",-37.3364293166464,-59.1819827896233,"IGN","06791","Tandil","Partido de Tandil","06",0.0159890350191502,"Buenos Aires"
"Partido",-37.534856250067,-61.8890922422146,"IGN","06203","Coronel Suárez","Partido de Coronel Suárez","06",0.0197588558596591,"Buenos Aires"
"Departamento",-30.1676450229169,-65.9564977168655,"IGN","46035","Chamical","Departamento Chamical","46",0.0605488854563919,"La Rioja"
"Departamento",-43.0705971248375,-71.4554653748233,"IGN","26035","Futaleufú","Departamento Futaleufú","26",0.0403243450762755,"Chubut"
"Departamento",-48.2873290195571,-71.113837498627,"IGN","78049","Río Chico","Departamento Río Chico","78",0.137476439939694,"Santa Cruz"
"Departamento",-40.9526636914294,-65.3712443332326,"IGN","62077","San Antonio","Departamento San Antonio","62",0.0714591672370002,"Río Negro"
"Departamento",-26.5210423501695,-62.7280139284021,"IGN","86014","Alberdi","Departamento Alberdi","86",0.0930587231610861,"Santiago del Estero"
"Departamento",-28.0394929915456,-62.5443747130478,"IGN","86098","Juan Felipe Ibarra","Departamento Juan Felipe Ibarra","86",0.0676588956253692,"Santiago del Estero"
"Departamento",-28.5683250686056,-62.3387633833787,"IGN","86077","General Taboada","Departamento General Taboada","86",0.0445275238257305,"Santiago del Estero"
"Partido",-36.6717775352133,-63.0479735266054,"IGN","06721","Salliqueló","Partido de Salliqueló","06",0.00260021005098978,"Buenos Aires"
"Partido",-34.8182447703794,-58.155461508679,"IGN","06091","Berazategui","Partido de Berazategui","06",0.000702861385533554,"Buenos Aires"
"Departamento",-24.7646021168635,-64.9560620821107,"IGN","66049","General Güemes","Departamento General Güemes","66",0.0141688649769075,"Salta"
"Departamento",-25.8295042903902,-66.1746708204562,"IGN","66154","San Carlos","Departamento San Carlos","66",0.0360647744849414,"Salta"
"Partido",-35.466183010272,-58.389651959253,"IGN","06343","General Paz","Partido de General Paz","06",0.00385933575465238,"Buenos Aires"
"Partido",-36.6660345415851,-57.9957365952016,"IGN","06308","General Guido","Partido de General Guido","06",0.00759535201216554,"Buenos Aires"
"Partido",-37.1535157186092,-57.2306605949345,"IGN","06315","General Juan Madariaga","Partido de General Juan Madariaga","06",0.00979821124270234,"Buenos Aires"
"Departamento",-49.8364881436802,-72.06547133431,"IGN","78028","Lago Argentino","Departamento Lago Argentino","78",0.161094700744396,"Santa Cruz"
"Departamento",-30.0205069976617,-62.280260406999,"IGN","86154","Rivadavia","Departamento Rivadavia","86",0.0250912878062891,"Santiago del Estero"
"Departamento",-29.3043766197306,-64.0144967880943,"IGN","86126","Ojo de Agua","Departamento Ojo de Agua","86",0.0473615644009732,"Santiago del Estero"
"Departamento",-28.7541678003854,-64.7638924389835,"IGN","86063","Choya","Departamento Choya","86",0.0456732041614853,"Santiago del Estero"
"Departamento",-35.3684506230675,-65.809487372821,"IGN","74042","Gobernador Dupuy","Departamento Gobernador Dupuy","74",0.248865379651948,"San Luis"
"Departamento",-25.038755786337,-66.2026200885047,"IGN","66014","Cachi","Departamento Cachi","66",0.0184272654698326,"Salta"
"Departamento",-25.1514413324719,-65.6063327574043,"IGN","66042","Chicoana","Departamento Chicoana","66",0.0068253904301787,"Salta"
"Departamento",-43.2725140893505,-66.1720705793314,"IGN","26042","Gaiman","Departamento Gaiman","26",0.0513510410253859,"Chubut"
"Departamento",-43.1373292631623,-65.0757170605931,"IGN","26077","Rawson","Departamento Rawson","26",0.0182374677148841,"Chubut"
"Departamento",-28.7904386774179,-68.6975444932226,"IGN","46077","General Lamadrid","Departamento General Lamadrid","46",0.06647462729753,"La Rioja"
"Departamento",-32.1657217092103,-66.5423618070089,"IGN","74007","Ayacucho","Departamento Ayacucho","74",0.106278175822297,"San Luis"
"Departamento",-27.3333760774448,-61.4758065480051,"IGN","22036","12 de Octubre","Departamento 12 de Octubre","22",0.0279260582227247,"Chaco"
"Departamento",-30.2195169248248,-63.8287887197042,"IGN","14175","Tulumba","Departamento Tulumba","14",0.057892422571753,"Córdoba"
"Departamento",-30.6567576546802,-65.0782065927095,"IGN","14028","Cruz del Eje","Departamento Cruz del Eje","14",0.0408160201155746,"Córdoba"
"Departamento",-31.2187582835824,-64.5858722176043,"IGN","14091","Punilla","Departamento Punilla","14",0.0148953248883072,"Córdoba"
"Comuna",-34.6168433901026,-58.4435682279951,"IGN","02042","Comuna 6","Comuna 6","02",0.0333181494150591,"Ciudad Autónoma de Buenos Aires"
"Departamento",-33.6169989146657,-67.9638561142682,"IGN","50112","Santa Rosa","Departamento Santa Rosa","50",0.0586184004432736,"Mendoza"
"Departamento",-25.212576905898,-61.3344270231873,"IGN","22063","General Güemes","Departamento General Güemes","22",0.255729006853091,"Chaco"
"Departamento",-31.0067607030974,-66.0589849758729,"IGN","46084","General Ortiz de Ocampo","Departamento General Ortiz de Ocampo","46",0.0414401905623246,"La Rioja"
"Departamento",-34.6231276675475,-64.3730221441911,"IGN","14035","General Roca","Departamento General Roca","14",0.0792845911385047,"Córdoba"
"Departamento",-25.1053773069172,-58.6616277481182,"IGN","34042","Pilagás","Departamento Pilagás","34",0.0454733739158722,"Formosa"
"Departamento",-26.4675822193402,-58.5654632415076,"IGN","34021","Laishi","Departamento Laishi","34",0.0481299119517497,"Formosa"
"Departamento",-33.4170768899779,-68.6049732994365,"IGN","50084","Rivadavia","Departamento Rivadavia","50",0.0139379904315996,"Mendoza"
"Partido",-38.2576421634805,-62.2905659977374,"IGN","06819","Tornquist","Partido de Tornquist","06",0.0138642275437942,"Buenos Aires"
"Departamento",-33.7012853202088,-67.2497236922759,"IGN","50042","La Paz","Departamento La Paz","50",0.0499951009727235,"Mendoza"
"Partido",-38.1479172688233,-61.2644174529926,"IGN","06196","Coronel Pringles","Partido de Coronel Pringles","06",0.0174995044798141,"Buenos Aires"
"Departamento",-40.1487161931233,-64.3049127228304,"IGN","62028","Conesa","Departamento Conesa","62",0.0482212733289042,"Río Negro"
"Partido",-39.1285652325867,-62.7245989548872,"IGN","06875","Villarino","Partido de Villarino","06",0.0352925528699862,"Buenos Aires"
"Departamento",-25.7672913544641,-59.1592563969217,"IGN","34056","Pirané","Departamento Pirané","34",0.11512914511408,"Formosa"
"Partido",-34.6696214541604,-62.0398536742269,"IGN","06351","General Pinto","Partido de General Pinto","06",0.00811763944867903,"Buenos Aires"
"Partido",-38.3890731972465,-59.5863264400332,"IGN","06742","San Cayetano","Partido de San Cayetano","06",0.0100105599605396,"Buenos Aires"
"Partido",-38.5118142752579,-60.2374173247047,"IGN","06833","Tres Arroyos","Partido de Tres Arroyos","06",0.0198292203846159,"Buenos Aires"
"Partido",-38.6708176079735,-61.0955505728699,"IGN","06189","Coronel Dorrego","Partido de Coronel Dorrego","06",0.0195963244139277,"Buenos Aires"
"Partido",-38.2554110045679,-59.1673869468897,"IGN","06581","Necochea","Partido de Necochea","06",0.0152226826107829,"Buenos Aires"
"Departamento",-30.1144556417024,-67.3355098029644,"IGN","46105","Independencia","Departamento Independencia","46",0.0771605899117996,"La Rioja"
"Partido",-35.6186883086057,-57.9039810685242,"IGN","06218","Chascomús","Partido de Chascomús","06",0.0101799067954983,"Buenos Aires"
"Partido",-35.4260558765566,-57.3992340402061,"IGN","06655","Punta Indio","Partido de Punta Indio","06",0.00516090096133198,"Buenos Aires"
"Departamento",-24.4475372667752,-65.1012859046503,"IGN","38014","El Carmen","Departamento El Carmen","38",0.0172169730879855,"Jujuy"
"Departamento",-31.7097123126909,-64.3059021632813,"IGN","14147","Santa María","Departamento Santa María","14",0.0196554287066734,"Córdoba"
"Departamento",-40.9744584304307,-66.3108907979663,"IGN","62084","Valcheta","Departamento Valcheta","62",0.105372741669725,"Río Negro"
"Departamento",-28.5330436663011,-66.7191026010202,"IGN","46007","Arauco","Departamento Arauco","46",0.0273199282584487,"La Rioja"
"Partido",-35.8492083919939,-57.8948443895452,"IGN","06466","Lezama","Partido de Lezama","06",0.00338477188334675,"Buenos Aires"
"Partido",-34.1383889592817,-58.8829573786215,"IGN","06126","Campana","Partido de Campana","06",0.00312248509034623,"Buenos Aires"
"Departamento",-48.8383418227095,-68.4681621290535,"IGN","78042","Magallanes","Departamento Magallanes","78",0.0831418974898388,"Santa Cruz"
"Departamento",-49.9474837008291,-69.4469507226845,"IGN","78007","Corpen Aike","Departamento Corpen Aike","78",0.10981688469524,"Santa Cruz"
"Departamento",-31.0350313100891,-65.4119724397194,"IGN","14070","Minas","Departamento Minas","14",0.0214267460678437,"Córdoba"
"Departamento",-31.7080283283874,-65.1565147370037,"IGN","14126","San Alberto","Departamento San Alberto","14",0.0204837249294779,"Córdoba"
"Departamento",-31.7331087895549,-63.4748555205649,"IGN","14119","Río Segundo","Departamento Río Segundo","14",0.0311408577814357,"Córdoba"
"Departamento",-31.242567096662,-62.5275890566991,"IGN","14140","San Justo","Departamento San Justo","14",0.0934948511657996,"Córdoba"
"Departamento",-32.8783816611385,-62.7915970558691,"IGN","14182","Unión","Departamento Unión","14",0.0666387409727991,"Córdoba"
"Departamento",-32.2876800226932,-63.77900489607,"IGN","14161","Tercero Arriba","Departamento Tercero Arriba","14",0.0312458983469851,"Córdoba"
"Departamento",-24.9885439364757,-65.4038161087861,"IGN","66035","Cerrillos","Departamento Cerrillos","66",0.00349658406422265,"Salta"
"Departamento",-33.330534188986,-64.4931343088767,"IGN","14098","Río Cuarto","Departamento Río Cuarto","14",0.114106099222601,"Córdoba"
"Departamento",-33.2934009869539,-69.2962859030556,"IGN","50126","Tupungato","Departamento Tupungato","50",0.0162120665860152,"Mendoza"
"Departamento",-40.9255514713631,-67.4574916560521,"IGN","62049","9 de Julio","Departamento 9 de Julio","62",0.119904659457391,"Río Negro"
"Departamento",-41.7398229279456,-70.4011459093449,"IGN","62056","Ñorquinco","Departamento Ñorquinco","62",0.0415805790545364,"Río Negro"
"Departamento",-34.9454490543358,-68.384239783985,"IGN","50105","San Rafael","Departamento San Rafael","50",0.211139849973339,"Mendoza"
"Departamento",-24.8754563539578,-63.8397263286188,"IGN","66007","Anta","Departamento Anta","66",0.145436111821103,"Salta"
"Departamento",-39.4039652237483,-69.427190720517,"IGN","58098","Picún Leufú","Departamento Picún Leufú","58",0.0492045720295733,"Neuquén"
"Departamento",-38.9221765260283,-69.8223682005858,"IGN","58112","Zapala","Departamento Zapala","58",0.0554898960703076,"Neuquén"
"Departamento",-41.1330450365746,-68.9063262041627,"IGN","62091","25 de Mayo","Departamento 25 de Mayo","62",0.138158602752717,"Río Negro"
"Departamento",-42.4388519406853,-67.176877305263,"IGN","26105","Telsen","Departamento Telsen","26",0.0847837179369281,"Chubut"
"Departamento",-40.8875523576138,-70.4627105357719,"IGN","62070","Pilcaniyeu","Departamento Pilcaniyeu","62",0.0546961572017353,"Río Negro"
"Partido",-37.196762082356,-63.0560551528803,"IGN","06007","Adolfo Alsina","Partido de Adolfo Alsina","06",0.0193344193827032,"Buenos Aires"
"Departamento",-35.2188456896959,-67.0805881742222,"IGN","50014","General Alvear","Departamento General Alvear","50",0.0994853305721354,"Mendoza"
"Departamento",-24.5623996239199,-65.4290994435937,"IGN","66077","La Caldera","Departamento La Caldera","66",0.00704116329537906,"Salta"
"Departamento",-26.7997133020842,-59.5191057139149,"IGN","22154","Sargento Cabral","Departamento Sargento Cabral","22",0.0166057700364561,"Chaco"
"Partido",-36.2711917055859,-63.2257521123403,"IGN","06616","Pellegrini","Partido de Pellegrini","06",0.00591539355058322,"Buenos Aires"
"Departamento",-39.1314863536249,-71.0463179632078,"IGN","58007","Aluminé","Departamento Aluminé","58",0.0505556716084217,"Neuquén"
"Departamento",-22.8153452313602,-64.9205141250691,"IGN","66070","Iruya","Departamento Iruya","66",0.0224752365703669,"Salta"
"Departamento",-40.314223088982,-71.1842639628873,"IGN","58056","Lácar","Departamento Lácar","58",0.0539400037312572,"Neuquén"
"Departamento",-28.3343382720204,-65.731187897962,"IGN","10063","Fray Mamerto Esquiú","Departamento Fray Mamerto Esquiú","10",0.00184457359783941,"Catamarca"
"Departamento",-28.6000684837485,-65.7079324164837,"IGN","10112","Valle Viejo","Departamento Valle Viejo","10",0.00603917516405666,"Catamarca"
"Departamento",-27.3822986767274,-58.5174742251831,"IGN","18133","San Cosme","Departamento San Cosme","18",0.00656267965068599,"Corrientes"
"Departamento",-45.3450926864638,-69.0028400019161,"IGN","26091","Sarmiento","Departamento Sarmiento","26",0.0665702915851048,"Chubut"
"Comuna",-34.6064435423382,-58.3715117424742,"IGN","02007","Comuna 1","Comuna 1","02",0.0871020054010277,"Ciudad Autónoma de Buenos Aires"
"Comuna",-34.6421128950646,-58.3875614030278,"IGN","02028","Comuna 4","Comuna 4","02",0.110184004602526,"Ciudad Autónoma de Buenos Aires"
"Departamento",-39.7003601698155,-68.4827895211107,"IGN","62035","El Cuy","Departamento El Cuy","62",0.105337615212612,"Río Negro"
"Departamento",-32.5246239358788,-69.2679113756459,"IGN","50049","Las Heras","Departamento Las Heras","50",0.0581331025066242,"Mendoza"
"Departamento",-27.6596299369227,-59.827840211346,"IGN","22161","Tapenagá","Departamento Tapenagá","22",0.0606632712473233,"Chaco"
"Departamento",-32.5754675617188,-67.8966912637568,"IGN","50056","Lavalle","Departamento Lavalle","50",0.0661755198742047,"Mendoza"
"Departamento",-36.1589400383152,-69.3130810458033,"IGN","50077","Malargüe","Departamento Malargüe","50",0.277196747900819,"Mendoza"
"Departamento",-34.1404893695479,-63.4188652087471,"IGN","14084","Presidente Roque Sáenz Peña","Departamento Presidente Roque Sáenz Peña","14",0.0511816720285519,"Córdoba"
"Departamento",-39.4807942919835,-70.4335593332114,"IGN","58021","Catán Lil","Departamento Catán Lil","58",0.0589853516427022,"Neuquén"
"Departamento",-27.0446247369186,-59.7745640420007,"IGN","22119","Presidencia de la Plaza","Departamento Presidencia de la Plaza","22",0.0226360157126791,"Chaco"
"Comuna",-34.6173699237915,-58.4205721902504,"IGN","02035","Comuna 5","Comuna 5","02",0.0323918836977123,"Ciudad Autónoma de Buenos Aires"
"Departamento",-29.985327366863,-59.2413818424126,"IGN","18049","Esquina","Departamento Esquina","18",0.0445714743057892,"Corrientes"
"Departamento",-54.7704676359158,-66.6836200601613,"IGN","94015","Ushuaia","Departamento Ushuaia","94",0.00189501966492348,"Tierra del Fuego, Antártida e Islas del Atlántico Sur"
"Departamento",-25.9467556410811,-67.6778798484787,"IGN","10028","Antofagasta de la Sierra","Departamento Antofagasta de la Sierra","10",0.274022148805053,"Catamarca"
"Partido",-34.8421497421872,-57.9791090925538,"IGN","06245","Ensenada","Partido de Ensenada","06",0.000362355107379883,"Buenos Aires"
"Departamento",-26.8332209186353,-65.2170208037282,"IGN","90084","Capital","Departamento Capital","90",0.00403200129994109,"Tucumán"
"Departamento",-32.6104361547012,-61.7047364516353,"IGN","82007","Belgrano","Departamento Belgrano","82",0.0187400489977133,"Santa Fe"
"Partido",-33.8360668139653,-60.5447828161659,"IGN","06623","Pergamino","Partido de Pergamino","06",0.00948034134183856,"Buenos Aires"
"Partido",-38.0760763207387,-63.0574326099086,"IGN","06651","Puán","Partido de Puán","06",0.0212075107214444,"Buenos Aires"
"Partido",-34.7702605023112,-62.9541988413061,"IGN","06392","General Villegas","Partido de General Villegas","06",0.0230643517196852,"Buenos Aires"
"Comuna",-34.5662276068999,-58.4904280414968,"IGN","02084","Comuna 12","Comuna 12","02",0.0759370848662676,"Ciudad Autónoma de Buenos Aires"
"Departamento",-28.672536399396,-59.5266963989458,"IGN","82049","General Obligado","Departamento General Obligado","82",0.0815310573765514,"Santa Fe"
"Departamento",-28.9706345150851,-60.4136679252075,"IGN","82133","Vera","Departamento Vera","82",0.152750984634252,"Santa Fe"
"Departamento",-28.8486776771703,-61.3979945646643,"IGN","82077","9 de Julio","Departamento 9 de Julio","82",0.127511919985812,"Santa Fe"
"Departamento",-40.7916894116905,-63.7651004404077,"IGN","62007","Adolfo Alsina","Departamento Adolfo Alsina","62",0.0445239992656366,"Río Negro"
"Departamento",-26.6663185244379,-60.1729742758302,"IGN","22133","Quitilipi","Departamento Quitilipi","22",0.015665623621735,"Chaco"
"Departamento",-51.4134125039336,-70.5618155469082,"IGN","78021","Güer Aike","Departamento Güer Aike","78",0.145191288324871,"Santa Cruz"
"Departamento",-28.9094976289814,-65.9017191021383,"IGN","10042","Capayán","Departamento Capayán","10",0.0432963524673839,"Catamarca"
"Departamento",-26.5305481465544,-64.8195981132229,"IGN","90007","Burruyacú","Departamento Burruyacú","90",0.160147116921214,"Tucumán"
"Departamento",-32.1537713587336,-61.0481265782097,"IGN","82105","San Jerónimo","Departamento San Jerónimo","82",0.0337711906743083,"Santa Fe"
"Departamento",-26.735179032354,-60.7563736019567,"IGN","22070","Independencia","Departamento Independencia","22",0.0193349692759192,"Chaco"
"Departamento",-29.6954668055505,-58.3248599040647,"IGN","18035","Curuzú Cuatiá","Departamento Curuzú Cuatiá","18",0.0941121430129866,"Corrientes"
"Departamento",-33.0384947617689,-69.4516850524047,"IGN","50063","Luján de Cuyo","Departamento Luján de Cuyo","50",0.0317411828503623,"Mendoza"
"Departamento",-27.5418355834148,-67.9307422147195,"IGN","10105","Tinogasta","Departamento Tinogasta","10",0.223132932847979,"Catamarca"
"Comuna",-34.636554414358,-58.4518868569654,"IGN","02049","Comuna 7","Comuna 7","02",0.0604295563475675,"Ciudad Autónoma de Buenos Aires"
"Departamento",-37.9792315730965,-63.9544864276514,"IGN","42077","Hucal","Departamento Hucal","42",0.0424522790423391,"La Pampa"
"Departamento",-27.3460559292444,-58.0713817911441,"IGN","18077","Itatí","Departamento Itatí","18",0.00964913897414946,"Corrientes"
"Comuna",-34.6278517920976,-58.5028178465965,"IGN","02070","Comuna 10","Comuna 10","02",0.0614580246122407,"Ciudad Autónoma de Buenos Aires"
"Departamento",-38.6756398635536,-63.8968185406946,"IGN","42014","Caleu Caleu","Departamento Caleu Caleu","42",0.0649222363776537,"La Pampa"
"Departamento",-38.2616348854642,-65.0966893102146,"IGN","42084","Lihuel Calel","Departamento Lihuel Calel","42",0.0884286195830349,"La Pampa"
"Departamento",-38.1797329921075,-66.330067375997,"IGN","42042","Curacó","Departamento Curacó","42",0.0956600669055286,"La Pampa"
"Departamento",-38.8322794945189,-68.7940772839278,"IGN","58035","Confluencia","Departamento Confluencia","58",0.0764841375638646,"Neuquén"
"Departamento",-38.5742773422999,-70.3729610459357,"IGN","58105","Picunches","Departamento Picunches","58",0.0639769151041468,"Neuquén"
"Departamento",-38.0983759451619,-69.0157147264732,"IGN","58014","Añelo","Departamento Añelo","58",0.126937318587654,"Neuquén"
"Departamento",-38.0659451614955,-70.3142327793889,"IGN","58063","Loncopué","Departamento Loncopué","58",0.0578521994300578,"Neuquén"
"Departamento",-37.6381186650332,-70.6780421229319,"IGN","58084","Ñorquín","Departamento Ñorquín","58",0.0580030925188573,"Neuquén"
"Departamento",-37.3984094176891,-69.4030432724945,"IGN","58091","Pehuenches","Departamento Pehuenches","58",0.0868041193000128,"Neuquén"
"Comuna",-34.6061370106731,-58.4967420076817,"IGN","02077","Comuna 11","Comuna 11","02",0.0684139030743299,"Ciudad Autónoma de Buenos Aires"
"Departamento",-26.6579081868111,-54.5631774506644,"IGN","54084","Montecarlo","Departamento Montecarlo","54",0.0588598013287838,"Misiones"
"Departamento",-26.3138449972573,-54.4407363386816,"IGN","54042","Eldorado","Departamento Eldorado","54",0.0573559435019427,"Misiones"
"Departamento",-26.62996077436,-53.9629780421788,"IGN","54112","San Pedro","Departamento San Pedro","54",0.13614655907638,"Misiones"
"Departamento",-82.7776766547034,-50.6480306037361,"IGN","94028","Antártida Argentina","Departamento Antártida Argentina","94",0.991219629079016,"Tierra del Fuego, Antártida e Islas del Atlántico Sur"
"Departamento",-36.8585578940124,-70.78364814983,"IGN","58077","Minas","Departamento Minas","58",0.0626477435333247,"Neuquén"
"Departamento",-36.8805641891102,-70.2863793101158,"IGN","58042","Chos Malal","Departamento Chos Malal","58",0.0474106205664361,"Neuquén"
"Departamento",-42.3663973043627,-70.7119978032417,"IGN","26014","Cushamen","Departamento Cushamen","26",0.0709886379754257,"Chubut"
"Departamento",-46.8342043710739,-70.6313995743965,"IGN","78035","Lago Buenos Aires","Departamento Lago Buenos Aires","78",0.112369788230935,"Santa Cruz"
"Departamento",-39.4076049744942,-64.4007362191104,"IGN","62063","Pichi Mahuida","Departamento Pichi Mahuida","62",0.0763799624980782,"Río Negro"
"Departamento",-28.1877612839021,-63.854114579261,"IGN","86175","San Martín","Departamento San Martín","86",0.0131335064903253,"Santiago del Estero"
"Departamento",-22.290645260596,-65.5667394207971,"IGN","38112","Yavi","Departamento Yavi","38",0.0560367790487708,"Jujuy"
"Departamento",-22.1376406851166,-66.227261407729,"IGN","38077","Santa Catalina","Departamento Santa Catalina","38",0.054695033618386,"Jujuy"
"Departamento",-24.2985083171115,-64.8109899059972,"IGN","38063","San Pedro","Departamento San Pedro","38",0.0387440651547718,"Jujuy"
"Departamento",-23.4666140607053,-65.0120193444126,"IGN","38105","Valle Grande","Departamento Valle Grande","38",0.0227911859564914,"Jujuy"
"Departamento",-24.8750081858591,-59.9584280130313,"IGN","34035","Patiño","Departamento Patiño","34",0.347223533242539,"Formosa"
"Departamento",-24.0254990220968,-61.2828611773469,"IGN","34007","Bermejo","Departamento Bermejo","34",0.182567110064141,"Formosa"
"Departamento",-23.5206710927029,-66.6617118803761,"IGN","38084","Susques","Departamento Susques","38",0.191882155694169,"Jujuy"
"Departamento",-23.8544865427827,-62.0770650055764,"IGN","34028","Matacos","Departamento Matacos","34",0.0532983170793434,"Formosa"
"Departamento",-24.6426248978878,-67.3440956899683,"IGN","66105","Los Andes","Departamento Los Andes","66",0.162031882941599,"Salta"
"Departamento",-23.4987916315192,-64.150945650256,"IGN","66126","Orán","Departamento Orán","66",0.0744679766564289,"Salta"
"Departamento",-23.5604015183698,-65.3200105901478,"IGN","38094","Tilcara","Departamento Tilcara","38",0.0398919318690272,"Jujuy"
"Departamento",-24.1949225166052,-65.1264498101135,"IGN","38042","Palpalá","Departamento Palpalá","38",0.00922060669638629,"Jujuy"
"Departamento",-36.4785080840981,-65.533063651288,"IGN","42098","Loventué","Departamento Loventué","42",0.0632271763147788,"La Pampa"
"Departamento",-45.3405591890669,-70.6400850098256,"IGN","26084","Río Senguer","Departamento Río Senguer","26",0.104668978044552,"Chubut"
"Departamento",-41.4981376652733,-71.5310863063756,"IGN","62021","Bariloche","Departamento Bariloche","62",0.0272522226736633,"Río Negro"
"Departamento",-39.7946776781884,-71.2590025540624,"IGN","58049","Huiliches","Departamento Huiliches","58",0.0433605635228554,"Neuquén"
"Departamento",-37.2419021199685,-66.5552326917265,"IGN","42091","Limay Mahuida","Departamento Limay Mahuida","42",0.0700020806570264,"La Pampa"
"Departamento",-37.4345215375332,-67.6045329036613,"IGN","42112","Puelén","Departamento Puelén","42",0.0917966551942317,"La Pampa"
"Departamento",-36.395699692841,-66.5727424085761,"IGN","42049","Chalileo","Departamento Chalileo","42",0.060842373467729,"La Pampa"
"Departamento",-36.3969736431163,-67.6944669009179,"IGN","42063","Chical Co","Departamento Chical Co","42",0.0623433099868185,"La Pampa"
"Departamento",-29.3883234023198,-63.3484161216539,"IGN","86140","Quebrachos","Departamento Quebrachos","86",0.0297173727865874,"Santiago del Estero"
"Departamento",-30.2289612354938,-57.870301871575,"IGN","18112","Monte Caseros","Departamento Monte Caseros","18",0.0307764860338142,"Corrientes"
"Departamento",-27.7429616104984,-60.6567128818538,"IGN","22098","Mayor Luis J. Fontana","Departamento Mayor Luis J. Fontana","22",0.0375862973135226,"Chaco"
"Departamento",-27.8647076723602,-61.3012288739823,"IGN","22043","Fray Justo Santa María de Oro","Departamento Fray Justo Santa María de Oro","22",0.0225438874241368,"Chaco"
"Departamento",-30.5778081168076,-65.9324739936757,"IGN","46063","General Belgrano","Departamento General Belgrano","46",0.031063913680683,"La Rioja"
"Departamento",-31.3153379040603,-61.1094808023915,"IGN","82070","Las Colonias","Departamento Las Colonias","82",0.0475450891415187,"Santa Fe"
"Departamento",-30.5304248144909,-60.4886940672178,"IGN","82112","San Justo","Departamento San Justo","82",0.0420062321204617,"Santa Fe"
"Departamento",-30.2283897206038,-61.3599372073841,"IGN","82091","San Cristóbal","Departamento San Cristóbal","82",0.10942431471467,"Santa Fe"
"Departamento",-30.1041461062467,-59.8980704736792,"IGN","82098","San Javier","Departamento San Javier","82",0.049893566156432,"Santa Fe"
"Departamento",-35.2298937893695,-63.6603750662124,"IGN","42056","Chapaleufú","Departamento Chapaleufú","42",0.0170093667454504,"La Pampa"
"Departamento",-35.2306620563122,-64.2098498059179,"IGN","42133","Realicó","Departamento Realicó","42",0.0166338437862428,"La Pampa"
"Departamento",-35.6796161112326,-63.6624899647122,"IGN","42105","Maracó","Departamento Maracó","42",0.0171826148806006,"La Pampa"
"Departamento",-35.631875013139,-64.2143766255202,"IGN","42147","Trenel","Departamento Trenel","42",0.0137273538183808,"La Pampa"
"Departamento",-25.9391612005653,-62.7310972270609,"IGN","86056","Copo","Departamento Copo","86",0.0937766069604329,"Santiago del Estero"
"Departamento",-36.4980625982423,-64.198128304565,"IGN","42021","Capital","Departamento Capital","42",0.0175767629252386,"La Pampa"
"Departamento",-24.007640144548,-64.4023116738515,"IGN","38070","Santa Bárbara","Departamento Santa Bárbara","38",0.0829076430130099,"Jujuy"
"Departamento",-25.7452119099225,-61.9589813624119,"IGN","22007","Almirante Brown","Departamento Almirante Brown","22",0.176482673443041,"Chaco"
"Departamento",-25.8715613006323,-64.7288089239246,"IGN","66140","Rosario de la Frontera","Departamento Rosario de la Frontera","66",0.0353758828222837,"Salta"
"Departamento",-40.0529194288429,-70.2813667759367,"IGN","58028","Collón Curá","Departamento Collón Curá","58",0.0623305107879592,"Neuquén"
"Comuna",-34.6138430816924,-58.4026514511807,"IGN","02021","Comuna 3","Comuna 3","02",0.0310554413140466,"Ciudad Autónoma de Buenos Aires"
"Partido",-34.1558361119161,-58.5345816568901,"IGN","06749","San Fernando","Partido de San Fernando","06",0.00341619505559662,"Buenos Aires"
"Partido",-34.382019907997,-58.5881738725709,"IGN","06805","Tigre","Partido de Tigre","06",0.00137293522010512,"Buenos Aires"
"Departamento",-26.7734648563207,-66.2612705245824,"IGN","10091","Santa María","Departamento Santa María","10",0.0538396608134818,"Catamarca"
"Departamento",-28.082107971849,-65.3350824661739,"IGN","10098","Santa Rosa","Departamento Santa Rosa","10",0.0158071301342941,"Catamarca"
"Departamento",-29.3955036215545,-65.1920338746874,"IGN","10070","La Paz","Departamento La Paz","10",0.0831710778153799,"Catamarca"
"Departamento",-27.4855424248983,-64.7601169003321,"IGN","86147","Río Hondo","Departamento Río Hondo","86",0.0148991768678778,"Santiago del Estero"
"Departamento",-28.3166977149073,-68.5252928296074,"IGN","46098","Vinchina","Departamento Vinchina","46",0.12310962382507,"La Rioja"
"Departamento",-29.4605896547988,-66.3526000997493,"IGN","46014","Capital","Departamento Capital","46",0.146560015973895,"La Rioja"
"Departamento",-30.0450412488063,-63.1990187799045,"IGN","14112","Río Seco","Departamento Río Seco","14",0.0401784049917181,"Córdoba"
"Departamento",-39.4102626929359,-66.20639651701,"IGN","62014","Avellaneda","Departamento Avellaneda","62",0.096722575961708,"Río Negro"
"Departamento",-38.5298947783261,-67.5574036622512,"IGN","62042","General Roca","Departamento General Roca","62",0.0703904436862414,"Río Negro"
"Departamento",-32.7356111326592,-66.7150525486673,"IGN","74014","Belgrano","Departamento Belgrano","74",0.106028810154093,"San Luis"
"Departamento",-40.7743503720999,-71.4867232511371,"IGN","58070","Los Lagos","Departamento Los Lagos","58",0.0460172840025797,"Neuquén"
"Departamento",-28.4117889646495,-65.8367262921682,"IGN","10049","Capital","Departamento Capital","10",0.0039879717249771,"Catamarca"
"Departamento",-28.9274130674418,-65.504299177941,"IGN","10014","Ancasti","Departamento Ancasti","10",0.0196296723382091,"Catamarca"
"Departamento",-28.2337589059236,-66.3888045363986,"IGN","10084","Pomán","Departamento Pomán","10",0.0495295575286747,"Catamarca"
"Comuna",-34.5857888788086,-58.3949035422527,"IGN","02014","Comuna 2","Comuna 2","02",0.0307396555312833,"Ciudad Autónoma de Buenos Aires"
"Departamento",-26.9436383020752,-61.264612522285,"IGN","22105","9 de Julio","Departamento 9 de Julio","22",0.0218048381290827,"Chaco"
"Departamento",-31.4627416617352,-65.4351550968219,"IGN","14077","Pocho","Departamento Pocho","14",0.0184808477584561,"Córdoba"
"Partido",-34.8760968437468,-58.5647013731149,"IGN","06270","Ezeiza","Partido de Ezeiza","06",0.000760607577910911,"Buenos Aires"
"Departamento",-27.5728459104474,-66.3731024938335,"IGN","10021","Andalgalá","Departamento Andalgalá","10",0.0535983009279175,"Catamarca"
"Departamento",-28.0199741656262,-65.9227878835948,"IGN","10007","Ambato","Departamento Ambato","10",0.0180726497030384,"Catamarca"
"Comuna",-34.6745664758358,-58.461948060155,"IGN","02056","Comuna 8","Comuna 8","02",0.108858625526761,"Ciudad Autónoma de Buenos Aires"
"Departamento",-27.9768511960939,-64.8712241216861,"IGN","86084","Guasayán","Departamento Guasayán","86",0.0194738344899015,"Santiago del Estero"
"Departamento",-28.1103167424607,-65.6743180153264,"IGN","10077","Paclín","Departamento Paclín","10",0.00980737231272536,"Catamarca"
"Departamento",-28.4317063831316,-65.3604289203864,"IGN","10056","El Alto","Departamento El Alto","10",0.019114912980991,"Catamarca"
"Departamento",-29.7643092597004,-64.1425182645874,"IGN","14154","Sobremonte","Departamento Sobremonte","14",0.0192087923431631,"Córdoba"
"Departamento",-53.7462919871752,-68.1361046544505,"IGN","94008","Río Grande","Departamento Río Grande","94",0.00157954813734915,"Tierra del Fuego, Antártida e Islas del Atlántico Sur"
"Comuna",-34.5541262964697,-58.4540029618054,"IGN","02091","Comuna 13","Comuna 13","02",0.0728411752698025,"Ciudad Autónoma de Buenos Aires"
"Departamento",-27.4347067680665,-64.2098658068652,"IGN","86035","Banda","Departamento Banda","86",0.0251817731510724,"Santiago del Estero"
"Departamento",-44.0301843801728,-68.6858628378531,"IGN","26070","Paso de Indios","Departamento Paso de Indios","26",0.0994483370030782,"Chubut"
"Departamento",-31.4167568770155,-64.1835837727284,"IGN","14014","Capital","Departamento Capital","14",0.00346989255240649,"Córdoba"
"Departamento",-43.8138479495924,-67.2399811031767,"IGN","26063","Mártires","Departamento Mártires","26",0.0697301733953713,"Chubut"
"Departamento",-28.1061147414452,-63.4461751488241,"IGN","86182","Sarmiento","Departamento Sarmiento","86",0.0123264541477208,"Santiago del Estero"
"Departamento",-47.3305629962178,-68.0290548030539,"IGN","78014","Deseado","Departamento Deseado","78",0.250909000575024,"Santa Cruz"
"Departamento",-43.3234918785199,-70.3484079877641,"IGN","26056","Languiñeo","Departamento Languiñeo","26",0.0654155141491938,"Chubut"
"Departamento",-29.0815053728088,-62.2182795085019,"IGN","86042","Belgrano","Departamento Belgrano","86",0.0246950664632845,"Santiago del Estero"
"Departamento",-29.2979732282428,-62.5150973801298,"IGN","86007","Aguirre","Departamento Aguirre","86",0.0303582671038052,"Santiago del Estero"
"Departamento",-26.3190099893669,-60.4546439783309,"IGN","22091","Maipú","Departamento Maipú","22",0.0291956625240508,"Chaco"
"Departamento",-34.0755248766466,-69.0973090508602,"IGN","50091","San Carlos","Departamento San Carlos","50",0.077034761586294,"Mendoza"
"Departamento",-33.6228877049098,-69.5092965661889,"IGN","50119","Tunuyán","Departamento Tunuyán","50",0.022412326438272,"Mendoza"
"Departamento",-27.8539440726978,-63.9075092603375,"IGN","86161","Robles","Departamento Robles","86",0.0098975698223108,"Santiago del Estero"
"Departamento",-28.6244804370084,-64.3107274308462,"IGN","86105","Loreto","Departamento Loreto","86",0.0229263538743628,"Santiago del Estero"
"Departamento",-36.581670209145,-63.6648685343036,"IGN","42028","Catriló","Departamento Catriló","42",0.0173707799637216,"La Pampa"
"Departamento",-27.8847652276627,-64.435667540413,"IGN","86049","Capital","Departamento Capital","86",0.0155202674735991,"Santiago del Estero"
"Comuna",-34.573874740768,-58.4222940810483,"IGN","02098","Comuna 14","Comuna 14","02",0.0770527312124967,"Ciudad Autónoma de Buenos Aires"
"Departamento",-32.0114827530749,-58.3699129592392,"IGN","30008","Colón","Departamento Colón","30",0.0351976870798207,"Entre Ríos"
"Departamento",-31.6477388964372,-59.0594708103114,"IGN","30113","Villaguay","Departamento Villaguay","30",0.0835415457146686,"Entre Ríos"
"Partido",-36.0414897439213,-57.6574251943684,"IGN","06168","Castelli","Partido de Castelli","06",0.00684408053432825,"Buenos Aires"
"Departamento",-31.576883538854,-58.4863728567569,"IGN","30088","San Salvador","Departamento San Salvador","30",0.0168883561457195,"Entre Ríos"
"Departamento",-27.1019560038189,-66.9224805098511,"IGN","10035","Belén","Departamento Belén","10",0.125106510838011,"Catamarca"
"Partido",-34.8356191132679,-58.36737293295,"IGN","06028","Almirante Brown","Partido de Almirante Brown","06",0.000412620123475506,"Buenos Aires"
"Departamento",-32.2187123476403,-59.7697019154662,"IGN","30077","Nogoyá","Departamento Nogoyá","30",0.0559461451741784,"Entre Ríos"
"Departamento",-32.3174117218427,-59.2672864854832,"IGN","30091","Tala","Departamento Tala","30",0.0338087784002675,"Entre Ríos"
"Departamento",-33.1192366285416,-59.6014598265182,"IGN","30049","Gualeguay","Departamento Gualeguay","30",0.0851835193267055,"Entre Ríos"
"Departamento",-30.7348532046962,-58.1591551818899,"IGN","30028","Federación","Departamento Federación","30",0.0474493129776134,"Entre Ríos"
"Departamento",-30.8973573249588,-59.5004308899395,"IGN","30070","La Paz","Departamento La Paz","30",0.0836400513249795,"Entre Ríos"
"Departamento",-30.4138996015365,-58.7288907563202,"IGN","30042","Feliciano","Departamento Feliciano","30",0.0397782239259862,"Entre Ríos"
"Partido",-34.9298478405731,-58.3980842106611,"IGN","06648","Presidente Perón","Partido de Presidente Perón","06",0.000389799042279721,"Buenos Aires"
"Partido",-34.5464751322689,-61.0052501278322,"IGN","06413","Junín","Partido de Junín","06",0.0071720175735617,"Buenos Aires"
"Partido",-35.2225197990076,-58.1752339039367,"IGN","06119","Brandsen","Partido de Brandsen","06",0.00357312503746316,"Buenos Aires"
"Partido",-34.915487328433,-59.9584194881488,"IGN","06224","Chivilcoy","Partido de Chivilcoy","06",0.00657817741788237,"Buenos Aires"
"Partido",-35.0369685106341,-60.2819765918318,"IGN","06021","Alberti","Partido de Alberti","06",0.00359199439584897,"Buenos Aires"
"Partido",-35.0614122707821,-60.6040466528095,"IGN","06112","Bragado","Partido de Bragado","06",0.00703640109962813,"Buenos Aires"
"Partido",-34.9094243780878,-58.9954466211925,"IGN","06329","General Las Heras","Partido de General Las Heras","06",0.00240012385632979,"Buenos Aires"
"Partido",-35.7499222140362,-61.3743777867738,"IGN","06147","Carlos Casares","Partido de Carlos Casares","06",0.00817124414045041,"Buenos Aires"
"Partido",-34.8140029646158,-58.8478312046572,"IGN","06525","Marcos Paz","Partido de Marcos Paz","06",0.00134714287846732,"Buenos Aires"
"Partido",-34.9977788912459,-61.0496572343522,"IGN","06385","General Viamonte","Partido de General Viamonte","06",0.00684444207281811,"Buenos Aires"
"Partido",-35.3797449374452,-62.4297895789754,"IGN","06154","Carlos Tejedor","Partido de Carlos Tejedor","06",0.0125697168003616,"Buenos Aires"
"Partido",-35.527208971772,-60.2302837885052,"IGN","06854","25 de Mayo","Partido de 25 de Mayo","06",0.0154146158430423,"Buenos Aires"
"Partido",-35.4812271475831,-60.975425441559,"IGN","06588","9 de Julio","Partido de 9 de Julio","06",0.0138032096041854,"Buenos Aires"
"Partido",-35.8836208341768,-61.9281257343997,"IGN","06609","Pehuajó","Partido de Pehuajó","06",0.0146228837047226,"Buenos Aires"
"Partido",-36.3471436403082,-60.1310650281756,"IGN","06798","Tapalqué","Partido de Tapalqué","06",0.0135545739281409,"Buenos Aires"
"Partido",-36.0567662720701,-62.6350797832329,"IGN","06826","Trenque Lauquen","Partido de Trenque Lauquen","06",0.0178135421020032,"Buenos Aires"
"Partido",-35.8346623469788,-58.6980799686583,"IGN","06301","General Belgrano","Partido de General Belgrano","06",0.00600141635540254,"Buenos Aires"
"Partido",-35.5098267581846,-58.7672358382292,"IGN","06547","Monte","Partido de Monte","06",0.00603558600099046,"Buenos Aires"
"Partido",-35.481635701192,-59.3575118159751,"IGN","06693","Roque Pérez","Partido de Roque Pérez","06",0.00500602280256217,"Buenos Aires"
"Partido",-36.8576340464573,-60.6702054013071,"IGN","06595","Olavarría","Partido de Olavarría","06",0.0250908132457425,"Buenos Aires"
"Partido",-34.7110032783084,-58.7419584139756,"IGN","06539","Merlo","Partido de Merlo","06",0.000554762057263936,"Buenos Aires"
"Departamento",-27.1478365768268,-54.8023437852311,"IGN","54014","Cainguás","Departamento Cainguás","54",0.051901548357663,"Misiones"
"Departamento",-52.5006628799787,-53.4026402162418,"IGN","94021","Islas del Atlántico Sur","Departamento Islas del Atlántico Sur","94",0.00373105357744606,"Tierra del Fuego, Antártida e Islas del Atlántico Sur"
"Partido",-34.8312135656106,-58.4769479291405,"IGN","06260","Esteban Echeverría","Partido de Esteban Echeverría","06",0.000387156216997533,"Buenos Aires"
"Partido",-34.0118119181559,-60.0626641477636,"IGN","06077","Arrecifes","Partido de Arrecifes","06",0.00393173852597767,"Buenos Aires"
"Partido",-34.1498445273572,-59.8540147848747,"IGN","06140","Capitán Sarmiento","Partido de Capitán Sarmiento","06",0.00173801246050464,"Buenos Aires"
"Departamento",-24.0891183755518,-65.4478782461086,"IGN","38021","Dr. Manuel Belgrano","Departamento Dr. Manuel Belgrano","38",0.0391643219687074,"Jujuy"
"Partido",-34.4067977883926,-59.8844134882327,"IGN","06161","Carmen de Areco","Partido de Carmen de Areco","06",0.00337088991200347,"Buenos Aires"
"Partido",-34.2710777868364,-60.3052878686828,"IGN","06714","Salto","Partido de Salto","06",0.00510820801256123,"Buenos Aires"
"Partido",-34.2951342236201,-59.1559461316089,"IGN","06266","Exaltación de la Cruz","Partido de Exaltación de la Cruz","06",0.00201880048872216,"Buenos Aires"
"Partido",-34.5521343486779,-58.6917835230047,"IGN","06760","San Miguel","Partido de San Miguel","06",0.000263265258351352,"Buenos Aires"
"Partido",-34.4377314289072,-59.4731985905145,"IGN","06728","San Andrés de Giles","Partido de San Andrés de Giles","06",0.00358744336285634,"Buenos Aires"
"Partido",-34.6973213261419,-59.4204811393582,"IGN","06532","Mercedes","Partido de Mercedes","06",0.00334428173503462,"Buenos Aires"
"Partido",-34.4481640053043,-58.9033327303822,"IGN","06638","Pilar","Partido de Pilar","06",0.00122227093091696,"Buenos Aires"
"Partido",-34.5673224195595,-59.1584564399668,"IGN","06497","Luján","Partido de Luján","06",0.00245404828764411,"Buenos Aires"
"Departamento",-26.9759689777425,-65.4789084982894,"IGN","90028","Famaillá","Departamento Famaillá","90",0.0203676309877116,"Tucumán"
"Partido",-34.5992830551765,-58.6495253867317,"IGN","06408","Hurlingham","Partido de Hurlingham","06",0.000113871768492897,"Buenos Aires"
"Partido",-34.6493861631091,-58.6198317111492,"IGN","06568","Morón","Partido de Morón","06",0.000175376993107983,"Buenos Aires"
"Partido",-34.6182002950801,-60.3543081129662,"IGN","06210","Chacabuco","Partido de Chacabuco","06",0.00729103246694235,"Buenos Aires"
"Departamento",-33.1503940875751,-68.4973606539186,"IGN","50035","Junín","Departamento Junín","50",0.0017955082059707,"Mendoza"
"Partido",-34.4873113444512,-58.7121372415949,"IGN","06515","Malvinas Argentinas","Partido de Malvinas Argentinas","06",0.000199850698595174,"Buenos Aires"
"Partido",-36.4971002162064,-62.8639077725213,"IGN","06847","Tres Lomas","Partido de Tres Lomas","06",0.00407891896445255,"Buenos Aires"
"Partido",-37.0354309121063,-58.4425565239465,"IGN","06042","Ayacucho","Partido de Ayacucho","06",0.0221626941335175,"Buenos Aires"
"Partido",-36.8906755108534,-62.4185310608382,"IGN","06399","Guaminí","Partido de Guaminí","06",0.0157958833332142,"Buenos Aires"
"Partido",-34.5527719180977,-58.5642821761285,"IGN","06371","General San Martín","Partido General San Martín","06",0.000179743284204998,"Buenos Aires"
"Partido",-35.0704479695471,-61.6824583851265,"IGN","06469","Lincoln","Partido de Lincoln","06",0.0184959585821046,"Buenos Aires"
"Partido",-37.5165055849878,-60.7681481810422,"IGN","06448","Laprida","Partido de Laprida","06",0.0113819873390458,"Buenos Aires"
"Partido",-34.4868929544319,-58.5372090766799,"IGN","06756","San Isidro","Partido de San Isidro","06",0.000166500602070316,"Buenos Aires"
"Partido",-37.586110705761,-59.8883978406322,"IGN","06084","Benito Juárez","Partido de Benito Juárez","06",0.0176306990956659,"Buenos Aires"
"Partido",-33.885864543958,-61.0624837286828,"IGN","06175","Colón","Partido de Colón","06",0.0031442828625256,"Buenos Aires"
"Partido",-34.6360716118614,-58.6887595155761,"IGN","06410","Ituzaingó","Partido de Ituzaingó","06",0.000121220048392776,"Buenos Aires"
"Partido",-34.6506156900812,-58.9878467982653,"IGN","06364","General Rodríguez","Partido de General Rodríguez","06",0.00116715308230071,"Buenos Aires"
"Partido",-34.7485741352291,-59.7033860485774,"IGN","06784","Suipacha","Partido de Suipacha","06",0.00300678286600358,"Buenos Aires"
"Partido",-34.5960100738691,-58.5791883855736,"IGN","06840","Tres de Febrero","Partido de Tres de Febrero","06",0.000144389168331309,"Buenos Aires"
"Departamento",-29.4499054722468,-68.3285566475246,"IGN","46028","General Felipe Varela","Departamento General Felipe Varela","46",0.0903016109967145,"La Rioja"
"Partido",-34.8777448240057,-58.2585548857898,"IGN","06274","Florencio Varela","Partido de Florencio Varela","06",0.000605119778724125,"Buenos Aires"
"Partido",-35.0304844816228,-59.4293585541147,"IGN","06574","Navarro","Partido de Navarro","06",0.00518125879431068,"Buenos Aires"
"Partido",-35.1448044957896,-58.6910941846835,"IGN","06134","Cañuelas","Partido de Cañuelas","06",0.00380035881229046,"Buenos Aires"
"Departamento",-27.2982006559922,-62.4639026540336,"IGN","86119","Moreno","Departamento Moreno","86",0.119258994548661,"Santiago del Estero"
"Departamento",-27.1153502635495,-61.3088349505972,"IGN","22028","Chacabuco","Departamento Chacabuco","22",0.0152945103467984,"Chaco"
"Partido",-35.0715087168304,-58.4318120603267,"IGN","06778","San Vicente","Partido de San Vicente","06",0.00211524089320746,"Buenos Aires"
"Partido",-35.2195857860094,-59.1457418827425,"IGN","06483","Lobos","Partido de Lobos","06",0.00553317603613114,"Buenos Aires"
"Partido",-36.0347106495852,-60.1331531037654,"IGN","06287","General Alvear","Partido de General Alvear","06",0.0109036063376756,"Buenos Aires"
"Partido",-34.7349707991152,-58.2768580209942,"IGN","06658","Quilmes","Partido de Quilmes","06",0.000292131788340899,"Buenos Aires"
"Partido",-36.2029842239612,-58.3404430505536,"IGN","06630","Pila","Partido de Pila","06",0.0111961204572951,"Buenos Aires"
"Partido",-37.3561277769109,-61.3441308948924,"IGN","06322","General La Madrid","Partido de General La Madrid","06",0.0158578929261367,"Buenos Aires"
"Partido",-36.2989479582916,-61.1498600852285,"IGN","06105","Bolívar","Partido de Bolívar","06",0.016036472560036,"Buenos Aires"
"Departamento",-28.8599829479134,-66.918584755618,"IGN","46021","Castro Barros","Departamento Castro Barros","46",0.0165783343976681,"La Rioja"
"Partido",-37.7146198082264,-58.2717475616555,"IGN","06063","Balcarce","Partido de Balcarce","06",0.0136349167295577,"Buenos Aires"
"Partido",-36.2591890205909,-61.660187626031,"IGN","06406","Hipólito Yrigoyen","Partido de Hipólito Yrigoyen","06",0.00534403504830688,"Buenos Aires"
"Departamento",-32.8828960440395,-68.893648801808,"IGN","50007","Capital","Departamento Capital","50",0.000353688083534687,"Mendoza"
"Partido",-36.3989376730385,-57.6319261244954,"IGN","06238","Dolores","Partido de Dolores","06",0.00643452001231189,"Buenos Aires"
"Partido",-36.7859352165928,-59.696478337621,"IGN","06049","Azul","Partido de Azul","06",0.0213780032055176,"Buenos Aires"
"Partido",-36.6408692174847,-61.8912495525965,"IGN","06231","Daireaux","Partido de Daireaux","06",0.0124768454288579,"Buenos Aires"
"Departamento",-32.9320744395304,-68.9141362247952,"IGN","50021","Godoy Cruz","Departamento Godoy Cruz","50",0.000691771875965055,"Mendoza"
"Departamento",-26.1257489988731,-65.8767230578258,"IGN","66021","Cafayate","Departamento Cafayate","66",0.010128259065046,"Salta"
"Departamento",-27.3218567501665,-63.579632022065,"IGN","86070","Figueroa","Departamento Figueroa","86",0.0517207132894978,"Santiago del Estero"
"Partido",-37.7706381329573,-62.4343829136658,"IGN","06700","Saavedra","Partido de Saavedra","06",0.0117457073922025,"Buenos Aires"
"Partido",-38.9616237886799,-61.2921466954973,"IGN","06553","Monte Hermoso","Partido de Monte Hermoso","06",0.000674275114875115,"Buenos Aires"
"Partido",-38.090052818611,-58.6935497786696,"IGN","06476","Lobería","Partido de Lobería","06",0.0157016062373857,"Buenos Aires"
"Partido",-34.9093551143988,-57.8283797724826,"IGN","06098","Berisso","Partido de Berisso","06",0.000461516287049349,"Buenos Aires"
"Partido",-36.3905151218837,-57.2738116449804,"IGN","06812","Tordillo","Partido de Tordillo","06",0.00434153397990102,"Buenos Aires"
"Partido",-33.9970897980955,-59.1282153004682,"IGN","06882","Zárate","Partido de Zárate","06",0.00374559765787623,"Buenos Aires"
"Partido",-33.5871861466481,-60.0575064405905,"IGN","06665","Ramallo","Partido de Ramallo","06",0.0032935602867276,"Buenos Aires"
"Partido",-33.4829873308981,-60.2931487802824,"IGN","06763","San Nicolás","Partido de San Nicolás","06",0.00213859861214101,"Buenos Aires"
"Departamento",-28.9187435895832,-63.3035949539634,"IGN","86168","Salavina","Departamento Salavina","86",0.0233925309145209,"Santiago del Estero"
"Departamento",-26.2199018368927,-64.0917498279144,"IGN","86133","Pellegrini","Departamento Pellegrini","86",0.0499646477336209,"Santiago del Estero"
"Departamento",-28.555362665393,-63.20376658846,"IGN","86028","Avellaneda","Departamento Avellaneda","86",0.0280155369202421,"Santiago del Estero"
"Departamento",-27.6198551557059,-61.3289519563791,"IGN","22039","2 de Abril","Departamento 2 de Abril","22",0.0161698719339123,"Chaco"
"Departamento",-32.8929748154748,-68.7333034931406,"IGN","50028","Guaymallén","Departamento Guaymallén","50",0.00106683957785455,"Mendoza"
"Departamento",-33.3295744809665,-63.6063858554279,"IGN","14056","Juárez Celman","Departamento Juárez Celman","14",0.0487661438864747,"Córdoba"
"Departamento",-24.8897949232452,-65.2713224010013,"IGN","66028","Capital","Departamento Capital","66",0.0110943848552619,"Salta"
"Departamento",-28.1888486590344,-64.2732683808613,"IGN","86189","Silípica","Departamento Silípica","86",0.00901460059088392,"Santiago del Estero"
"Departamento",-26.0848731785427,-65.1760220468639,"IGN","66084","La Candelaria","Departamento La Candelaria","66",0.00879574828051384,"Salta"
"Departamento",-35.408324405275,-64.7962057702449,"IGN","42126","Rancul","Departamento Rancul","42",0.0338484887448348,"La Pampa"
"Departamento",-32.9797495635853,-68.6563133629426,"IGN","50070","Maipú","Departamento Maipú","50",0.00409989601910658,"Mendoza"
"Departamento",-25.7029584300217,-65.4445406244237,"IGN","66063","Guachipas","Departamento Guachipas","66",0.0181539135880509,"Salta"
"Departamento",-37.0324944038817,-63.7788849526284,"IGN","42007","Atreucó","Departamento Atreucó","42",0.0244442643885574,"La Pampa"
"Departamento",-32.9140381657571,-68.2888458647488,"IGN","50098","San Martín","Departamento San Martín","50",0.00990882194839183,"Mendoza"
"Departamento",-37.4836471472851,-63.7813081297621,"IGN","42070","Guatraché","Departamento Guatraché","42",0.0245826169040709,"La Pampa"
"Departamento",-29.1585269700836,-67.0658836337284,"IGN","46126","Sanagasta","Departamento Sanagasta","46",0.01419237112477,"La Rioja"
"Departamento",-36.0320043909386,-64.5086492198133,"IGN","42035","Conhelo","Departamento Conhelo","42",0.0351855006680871,"La Pampa"
"Departamento",-26.8931448896048,-54.9233629608393,"IGN","54077","Libertador General San Martín","Departamento Libertador General San Martín","54",0.048901659700546,"Misiones"
"Departamento",-31.4229834527921,-66.6741641296595,"IGN","46112","Rosario Vera Peñaloza","Departamento Rosario Vera Peñaloza","46",0.0552984961866906,"La Rioja"
"Departamento",-27.8758596571718,-57.4100421733803,"IGN","18154","San Miguel","Departamento San Miguel","18",0.0340639677883074,"Corrientes"
"Departamento",-30.8006382527121,-66.8678571954155,"IGN","46070","General Juan Facundo Quiroga","Departamento General Juan Facundo Quiroga","46",0.0476221411171128,"La Rioja"
"Departamento",-30.3128975387926,-66.6630521188297,"IGN","46056","Ángel Vicente Peñaloza","Departamento Ángel Vicente Peñaloza","46",0.0344121556368639,"La Rioja"
"Departamento",-27.8961126654966,-58.665840300338,"IGN","18042","Empedrado","Departamento Empedrado","18",0.021839984716698,"Corrientes"
"Departamento",-29.39593747537,-67.427886789152,"IGN","46042","Chilecito","Departamento Chilecito","46",0.0571830266271344,"La Rioja"
"Departamento",-36.662162152652,-64.6922110147401,"IGN","42140","Toay","Departamento Toay","42",0.0353188518086181,"La Pampa"
"Departamento",-31.1461809443167,-64.149086867857,"IGN","14021","Colón","Departamento Colón","14",0.0142265828296706,"Córdoba"
"Departamento",-27.9113085755074,-56.790098223735,"IGN","18084","Ituzaingó","Departamento Ituzaingó","18",0.107688816858105,"Corrientes"
"Departamento",-28.6973536209113,-67.5592543116777,"IGN","46049","Famatina","Departamento Famatina","46",0.0451773678650213,"La Rioja"
"Departamento",-33.9221898209726,-61.939680211795,"IGN","82042","General López","Departamento General López","82",0.0898926640148587,"Santa Fe"
"Departamento",-33.4871399171909,-60.8374001304635,"IGN","82028","Constitución","Departamento Constitución","82",0.024354567772595,"Santa Fe"
"Departamento",-33.2249739383268,-61.5428621200429,"IGN","82014","Caseros","Departamento Caseros","82",0.0268127756814519,"Santa Fe"
"Departamento",-33.1178472652264,-60.7232422315034,"IGN","82084","Rosario","Departamento Rosario","82",0.0152682443724274,"Santa Fe"
"Departamento",-32.9413325358441,-60.9640078882428,"IGN","82119","San Lorenzo","Departamento San Lorenzo","82",0.0145028160418538,"Santa Fe"
"Departamento",-32.7060836089974,-61.273387709005,"IGN","82056","Iriondo","Departamento Iriondo","82",0.024662788684282,"Santa Fe"
"Partido",-34.7056542439723,-58.3946965048442,"IGN","06434","Lanús","Partido de Lanús","06",0.000160051704610363,"Buenos Aires"
"Departamento",-31.6414651427458,-66.1458162300477,"IGN","46091","General San Martín","Departamento General San Martín","46",0.0499894713868413,"La Rioja"
"Departamento",-28.5432938438178,-67.1581352967929,"IGN","46119","San Blas de Los Sauces","Departamento San Blas de Los Sauces","46",0.015567249695042,"La Rioja"
"Departamento",-24.3466655289394,-65.4465034514555,"IGN","38056","San Antonio","Departamento San Antonio","38",0.0131039751572657,"Jujuy"
"Departamento",-22.621441999219,-66.5415632203904,"IGN","38049","Rinconada","Departamento Rinconada","38",0.115255520574651,"Jujuy"
"Departamento",-23.120377014683,-62.1378892144612,"IGN","34063","Ramón Lista","Departamento Ramón Lista","34",0.050154353429119,"Formosa"
"Departamento",-24.146976523836,-66.2072973644748,"IGN","66091","La Poma","Departamento La Poma","66",0.025736399263753,"Salta"
"Departamento",-42.4435913808796,-64.9333479901808,"IGN","26007","Biedma","Departamento Biedma","26",0.0562443966666396,"Chubut"
"Departamento",-27.5223367116017,-58.7624842360155,"IGN","18021","Capital","Departamento Capital","18",0.00616192117193642,"Corrientes"
"Departamento",-27.6020530782378,-58.2683508234644,"IGN","18140","San Luis del Palmar","Departamento San Luis del Palmar","18",0.0286057713290461,"Corrientes"
"Departamento",-25.9396352320143,-58.3773174492375,"IGN","34014","Formosa","Departamento Formosa","34",0.086885936522673,"Formosa"
"Departamento",-25.3700377166163,-58.0626062654551,"IGN","34049","Pilcomayo","Departamento Pilcomayo","34",0.0711380258184748,"Formosa"
"Departamento",-44.2001445034306,-70.5769493727789,"IGN","26098","Tehuelches","Departamento Tehuelches","26",0.0655041827342155,"Chubut"
"Departamento",-45.2828915460529,-67.7088649201803,"IGN","26021","Escalante","Departamento Escalante","26",0.0652507349585136,"Chubut"
"Departamento",-30.3985157855081,-64.609928019562,"IGN","14049","Ischilín","Departamento Ischilín","14",0.030071137682986,"Córdoba"
"Departamento",-30.7263442710895,-63.9844039885161,"IGN","14168","Totoral","Departamento Totoral","14",0.0182475018754225,"Córdoba"
"Departamento",-32.5143227869566,-63.2562056057504,"IGN","14042","General San Martín","Departamento General San Martín","14",0.0304210269755881,"Córdoba"
"Departamento",-32.0760871294213,-65.1422236066015,"IGN","14133","San Javier","Departamento San Javier","14",0.00939912319348512,"Córdoba"
"Departamento",-31.0315240757859,-63.436114778127,"IGN","14105","Río Primero","Departamento Río Primero","14",0.0403787502220151,"Córdoba"
"Departamento",-33.0308431509632,-62.2775947053165,"IGN","14063","Marcos Juárez","Departamento Marcos Juárez","14",0.0563483131216886,"Córdoba"
"Departamento",-27.1388899905163,-59.3467829351985,"IGN","22056","General Donovan","Departamento General Donovan","22",0.0153222098522473,"Chaco"
"Partido",-34.4985652798534,-61.6125874742962,"IGN","06462","Leandro N. Alem","Partido de Leandro N. Alem","06",0.0050999961045909,"Buenos Aires"
"Departamento",-26.3775454900773,-59.4877181570758,"IGN","22084","Libertador General San Martín","Departamento Libertador General San Martín","22",0.0721212666493741,"Chaco"
"Departamento",-42.7490296126002,-68.8023248035912,"IGN","26049","Gastre","Departamento Gastre","26",0.0700375956516298,"Chubut"
"Partido",-34.2379020431362,-61.2833812257449,"IGN","06294","General Arenales","Partido de General Arenales","06",0.00470115742651847,"Buenos Aires"
"Departamento",-26.9580421515067,-58.709116096044,"IGN","22014","Bermejo","Departamento Bermejo","22",0.02575234586044,"Chaco"
"Departamento",-32.2020591306015,-64.6151725606746,"IGN","14007","Calamuchita","Departamento Calamuchita","14",0.0285410985040589,"Córdoba"
"Departamento",-26.9180036848972,-64.9738642266054,"IGN","90014","Cruz Alta","Departamento Cruz Alta","90",0.0534640665108381,"Tucumán"
"Departamento",-26.8622353459017,-65.4310245938907,"IGN","90063","Lules","Departamento Lules","90",0.0273000911427296,"Tucumán"
"Departamento",-26.7839244723358,-65.3411739273315,"IGN","90119","Yerba Buena","Departamento Yerba Buena","90",0.00659759435683079,"Tucumán"
"Departamento",-26.6601491447319,-65.4640739296384,"IGN","90105","Tafí Viejo","Departamento Tafí Viejo","90",0.051819330596634,"Tucumán"
"Departamento",-32.5784192378867,-65.7095887718459,"IGN","74063","Libertador General San Martín","Departamento Libertador General San Martín","74",0.045386425965814,"San Luis"
"Departamento",-33.1068820570862,-65.9007902060388,"IGN","74021","Coronel Pringles","Departamento Coronel Pringles","74",0.0506182315169812,"San Luis"
"Departamento",-32.7270768664399,-65.198209788321,"IGN","74028","Chacabuco","Departamento Chacabuco","74",0.0316068453540056,"San Luis"
"Partido",-35.581056985938,-63.0947616852349,"IGN","06679","Rivadavia","Partido de Rivadavia","06",0.0127385166227405,"Buenos Aires"
"Partido",-40.1963833078675,-62.8508023633523,"IGN","06602","Patagones","Partido de Patagones","06",0.0466025403566974,"Buenos Aires"
"Departamento",-33.900714617211,-66.5024402257537,"IGN","74056","Juan Martín de Pueyrredón","Departamento Juan Martín de Pueyrredón","74",0.179741697548732,"San Luis"
"Departamento",-33.8922244453095,-65.5597745631101,"IGN","74035","General Pedernera","Departamento General Pedernera","74",0.197047768066415,"San Luis"
"Departamento",-26.3434123363847,-65.4058207897255,"IGN","90112","Trancas","Departamento Trancas","90",0.132761548897074,"Tucumán"
"Departamento",-26.5914686020616,-65.8893504834043,"IGN","90098","Tafí del Valle","Departamento Tafí del Valle","90",0.108190872092607,"Tucumán"
"Comuna",-34.6517887970418,-58.4991751735853,"IGN","02063","Comuna 9","Comuna 9","02",0.0801222180510709,"Ciudad Autónoma de Buenos Aires"
"Departamento",-32.2163016656263,-65.3948431186635,"IGN","74049","Junín","Departamento Junín","74",0.0344266659182431,"San Luis"
"Departamento",-29.6150490318213,-62.7386757564942,"IGN","86112","Mitre","Departamento Mitre","86",0.0251782542452749,"Santiago del Estero"
"Departamento",-28.6918181695012,-63.8815639977726,"IGN","86021","Atamisqui","Departamento Atamisqui","86",0.0177767130418954,"Santiago del Estero"
"Departamento",-27.4779704395686,-57.6113807712108,"IGN","18014","Berón de Astrada","Departamento Berón de Astrada","18",0.00944413123833806,"Corrientes"
"Departamento",-54.4245608947124,-67.5034849447963,"IGN","94011","Tolhuin","Departamento Tolhuin","94",0.00157464841634478,"Tierra del Fuego, Antártida e Islas del Atlántico Sur"
"Departamento",-27.5505259291655,-55.8565833366475,"IGN","54028","Capital","Departamento Capital","54",0.0327044476988459,"Misiones"
"Departamento",-27.4608500546705,-55.5826900383218,"IGN","54021","Candelaria","Departamento Candelaria","54",0.0309003351978077,"Misiones"
"Departamento",-26.8996081032586,-64.2724736671085,"IGN","86091","Jiménez","Departamento Jiménez","86",0.0404005597352531,"Santiago del Estero"
"Partido",-38.8490773280679,-61.8355844196542,"IGN","06182","Coronel de Marina Leonardo Rosales","Partido de Coronel de Marina Leonardo Rosales","06",0.00433523886054252,"Buenos Aires"
"Partido",-33.9319613769628,-59.4927871380553,"IGN","06070","Baradero","Partido de Baradero","06",0.00483118540483929,"Buenos Aires"
"Partido",-33.7809860202918,-59.7826260109294,"IGN","06770","San Pedro","Partido de San Pedro","06",0.00430673144957843,"Buenos Aires"
"Departamento",-22.3958917322092,-64.8955647956079,"IGN","66161","Santa Victoria","Departamento Santa Victoria","66",0.0256935803042811,"Salta"
"Departamento",-22.7144623805907,-63.6582864287813,"IGN","66056","General José de San Martín","Departamento General José de San Martín","66",0.102449726398612,"Salta"
"Departamento",-23.5194718277586,-62.8285940219747,"IGN","66133","Rivadavia","Departamento Rivadavia","66",0.167676292039284,"Salta"
"Departamento",-24.5457519055916,-65.8530078405525,"IGN","66147","Rosario de Lerma","Departamento Rosario de Lerma","66",0.0331176185550765,"Salta"
"Departamento",-23.7854859185353,-64.8288746330382,"IGN","38035","Ledesma","Departamento Ledesma","38",0.0561887375245148,"Jujuy"
"Departamento",-23.0820099180032,-65.4095227491295,"IGN","38028","Humahuaca","Departamento Humahuaca","38",0.0662014389727633,"Jujuy"
"Departamento",-22.9392130779775,-65.9347260935414,"IGN","38007","Cochinoca","Departamento Cochinoca","38",0.134623813340465,"Jujuy"
"Departamento",-23.7434749479331,-65.6961901966194,"IGN","38098","Tumbaya","Departamento Tumbaya","38",0.0620757763518778,"Jujuy"
"Partido",-34.8741058055206,-62.4017162645879,"IGN","06277","Florentino Ameghino","Partido de Florentino Ameghino","06",0.00578883930628342,"Buenos Aires"
"Departamento",-44.4231369267293,-66.1302641083269,"IGN","26028","Florentino Ameghino","Departamento Florentino Ameghino","26",0.0714445860828035,"Chubut"
"Departamento",-27.7940604809292,-65.5977877083311,"IGN","90049","La Cocha","Departamento La Cocha","90",0.0427746144311694,"Tucumán"
"Departamento",-27.7132775964524,-65.2550360276541,"IGN","90035","Graneros","Departamento Graneros","90",0.0753677871399028,"Tucumán"
"Departamento",-27.6060757021473,-65.7831912587906,"IGN","90042","Juan Bautista Alberdi","Departamento Juan Bautista Alberdi","90",0.0328360714392479,"Tucumán"
"Departamento",-27.4501203542874,-65.7518266389415,"IGN","90077","Río Chico","Departamento Río Chico","90",0.0272145631674211,"Tucumán"
"Departamento",-27.4238370613532,-65.2924847788807,"IGN","90091","Simoca","Departamento Simoca","90",0.0594692915388672,"Tucumán"
"Departamento",-27.2696018679715,-65.8110637206058,"IGN","90021","Chicligasta","Departamento Chicligasta","90",0.0573707648111362,"Tucumán"
"Departamento",-27.1106201705702,-65.6430768814482,"IGN","90070","Monteros","Departamento Monteros","90",0.052778773338602,"Tucumán"
"Departamento",-27.1918831757327,-65.0848647351414,"IGN","90056","Leales","Departamento Leales","90",0.0875078813280736,"Tucumán"
"Departamento",-32.0122706461745,-61.8090742014148,"IGN","82126","San Martín","Departamento San Martín","82",0.0375590918572857,"Santa Fe"
"Departamento",-31.4753563668226,-60.6694790136058,"IGN","82063","La Capital","Departamento La Capital","82",0.0225016794594139,"Santa Fe"
"Departamento",-25.9784317106931,-53.9638550967802,"IGN","54049","General Manuel Belgrano","Departamento General Manuel Belgrano","54",0.0992544944135137,"Misiones"
"Departamento",-27.0262348990631,-54.2693651314473,"IGN","54056","Guaraní","Departamento Guaraní","54",0.109727613438413,"Misiones"
"Departamento",-25.8747354911285,-54.4004185890739,"IGN","54063","Iguazú","Departamento Iguazú","54",0.0908753373537364,"Misiones"
"Departamento",-27.3786143619873,-54.6340904863083,"IGN","54119","25 de Mayo","Departamento 25 de Mayo","54",0.0555201634202535,"Misiones"
"Departamento",-27.4763636010381,-55.0712221113606,"IGN","54091","Oberá","Departamento Oberá","54",0.052827142540477,"Misiones"
"Departamento",-31.2314615495091,-61.6572584461682,"IGN","82021","Castellanos","Departamento Castellanos","82",0.0507295404343736,"Santa Fe"
"Departamento",-31.0546413334486,-60.1258077355938,"IGN","82035","Garay","Departamento Garay","82",0.0305414278797358,"Santa Fe"
"Departamento",-36.1306405658638,-63.6637300134466,"IGN","42119","Quemú Quemú","Departamento Quemú Quemú","42",0.0172782559904481,"La Pampa"
"Departamento",-27.1765939471765,-55.3392901736977,"IGN","54098","San Ignacio","Departamento San Ignacio","54",0.0559892387113582,"Misiones"
"Departamento",-37.3338794806419,-65.082831667763,"IGN","42154","Utracán","Departamento Utracán","42",0.0901665018466089,"La Pampa"
"Departamento",-28.8289801487463,-56.9315835110542,"IGN","18147","San Martín","Departamento San Martín","18",0.07468107625038,"Corrientes"
"Departamento",-29.5936363396967,-57.2996338361445,"IGN","18119","Paso de los Libres","Departamento Paso de los Libres","18",0.0553298214831475,"Corrientes"
"Departamento",-29.4514535088561,-59.2559121520651,"IGN","18070","Goya","Departamento Goya","18",0.0540242609658804,"Corrientes"
"Departamento",-28.9879904880901,-58.9337232555635,"IGN","18091","Lavalle","Departamento Lavalle","18",0.0167862559774199,"Corrientes"
"Departamento",-28.705807188664,-58.6130359023562,"IGN","18161","San Roque","Departamento San Roque","18",0.0272223503873453,"Corrientes"
"Departamento",-28.775163187308,-56.5115304340621,"IGN","18056","General Alvear","Departamento General Alvear","18",0.0218595659622828,"Corrientes"
"Departamento",-28.4083995312262,-58.0313928425117,"IGN","18028","Concepción","Departamento Concepción","18",0.0590525344459261,"Corrientes"
"Departamento",-28.4973870089949,-58.9304354321186,"IGN","18007","Bella Vista","Departamento Bella Vista","18",0.0198915949417008,"Corrientes"
"Departamento",-28.2311041286613,-56.2221766248194,"IGN","18168","Santo Tomé","Departamento Santo Tomé","18",0.0782094581978813,"Corrientes"
"Departamento",-28.2124686853348,-58.6199128880477,"IGN","18126","Saladas","Departamento Saladas","18",0.0214240348523597,"Corrientes"
"Departamento",-27.7199319611528,-57.7876331852429,"IGN","18063","General Paz","Departamento General Paz","18",0.0289939222513631,"Corrientes"
"Departamento",-27.6306652583192,-55.3880677316604,"IGN","54070","Leandro N. Alem","Departamento Leandro N. Alem","54",0.0359712234849431,"Misiones"
"Departamento",-27.7771031453698,-55.1674595937339,"IGN","54105","San Javier","Departamento San Javier","54",0.0218538501191516,"Misiones"
"Departamento",-28.0163838994325,-58.1855639990468,"IGN","18098","Mburucuyá","Departamento Mburucuyá","18",0.0111245064266218,"Corrientes"
"Departamento",-27.9311673935877,-55.4670364912488,"IGN","54035","Concepción","Departamento Concepción","54",0.0262344732764141,"Misiones"
"Departamento",-27.8887539522051,-55.6781134842867,"IGN","54007","Apóstoles","Departamento Apóstoles","54",0.0349761683797671,"Misiones"
"Departamento",-27.1678037354366,-58.9587415590109,"IGN","22126","1° de Mayo","Departamento 1° de Mayo","22",0.0129435993381663,"Chaco"
"Departamento",-27.7156982892704,-59.1154439908292,"IGN","22140","San Fernando","Departamento San Fernando","22",0.0360590556268442,"Chaco"
"Departamento",-27.3933734765875,-60.3637302119912,"IGN","22147","San Lorenzo","Departamento San Lorenzo","22",0.0217192105323007,"Chaco"
"Partido",-34.7549679553956,-58.4240954303406,"IGN","06490","Lomas de Zamora","Partido de Lomas de Zamora","06",0.00028297717812831,"Buenos Aires"
"Partido",-34.6781993084404,-58.3411445451106,"IGN","06035","Avellaneda","Partido de Avellaneda","06",0.00017913873991004,"Buenos Aires"
"Departamento",-26.8170406143405,-60.0184594861944,"IGN","22168","25 de Mayo","Departamento 25 de Mayo","22",0.0238945964303814,"Chaco"
"Departamento",-26.8478157545068,-61.0713338324887,"IGN","22049","General Belgrano","Departamento General Belgrano","22",0.0130954873857754,"Chaco"
"Departamento",-27.3493250970289,-59.2597877694895,"IGN","22077","Libertad","Departamento Libertad","22",0.0105136220507616,"Chaco"
"Departamento",-26.7853900358381,-60.4612869070114,"IGN","22021","Comandante Fernández","Departamento Comandante Fernández","22",0.0151142143981865,"Chaco"
"Comuna",-34.5918836701535,-58.4627740218465,"IGN","02105","Comuna 15","Comuna 15","02",0.0696350360721548,"Ciudad Autónoma de Buenos Aires"
"Departamento",-31.4874196948537,-68.5239289663008,"IGN","70042","Chimbas","Departamento Chimbas","70",0.000762255112269867,"San Juan"
"Departamento",-31.5330748483668,-68.5342856277496,"IGN","70028","Capital","Departamento Capital","70",0.000304145576717271,"San Juan"
"Departamento",-31.5542325394282,-68.6416232535725,"IGN","70084","Rivadavia","Departamento Rivadavia","70",0.00137228537556859,"San Juan"
"Departamento",-31.6454181217339,-68.3891603884533,"IGN","70063","9 de Julio","Departamento 9 de Julio","70",0.0017515074163577,"San Juan"
"Departamento",-31.209735511428,-68.4521792374306,"IGN","70007","Albardón","Departamento Albardón","70",0.0115161138362762,"San Juan"
"Departamento",-31.1922718652932,-68.1320483297946,"IGN","70014","Angaco","Departamento Angaco","70",0.0290120221188157,"San Juan"
"Departamento",-31.5327197592087,-68.4634100474193,"IGN","70098","Santa Lucía","Departamento Santa Lucía","70",0.0006168116181825,"San Juan"
"Departamento",-31.6866317967417,-68.4675945970348,"IGN","70077","Rawson","Departamento Rawson","70",0.00325974147641732,"San Juan"
"Departamento",-31.9898921289958,-67.8268026426216,"IGN","70126","25 de Mayo","Departamento 25 de Mayo","70",0.0481827109415363,"San Juan"
"Departamento",-31.5285457556281,-68.2072669737396,"IGN","70091","San Martín","Departamento San Martín","70",0.00627852995341095,"San Juan"
"Departamento",-31.7472539046839,-68.5846798192063,"IGN","70070","Pocito","Departamento Pocito","70",0.00655251781392724,"San Juan"
"Departamento",-31.6417783563664,-68.9548418805416,"IGN","70133","Zonda","Departamento Zonda","70",0.0275911099278849,"San Juan"
"Departamento",-31.0852853750901,-68.8823909182891,"IGN","70112","Ullum","Departamento Ullum","70",0.0507864067700745,"San Juan"
"Departamento",-32.076116858425,-68.6870408796588,"IGN","70105","Sarmiento","Departamento Sarmiento","70",0.0324421208961299,"San Juan"
"Departamento",-31.4509359086826,-69.8318658247746,"IGN","70021","Calingasta","Departamento Calingasta","70",0.258396615306014,"San Juan"
"Departamento",-29.6011907018103,-69.4387201063957,"IGN","70049","Iglesia","Departamento Iglesia","70",0.214009808551241,"San Juan"
"Departamento",-30.3546413571108,-68.4399965840681,"IGN","70056","Jáchal","Departamento Jáchal","70",0.161407148624041,"San Juan"
"Departamento",-30.7168856749658,-67.5276736787401,"IGN","70119","Valle Fértil","Departamento Valle Fértil","70",0.0595753569711661,"San Juan"
"Departamento",-31.5069003261853,-67.5454408659079,"IGN","70035","Caucete","Departamento Caucete","70",0.0861827900939675,"San Juan"
"Partido",-35.0038470156345,-58.0177777886077,"IGN","06441","La Plata","Partido de La Plata","06",0.00285538368932256,"Buenos Aires"
"Departamento",-29.0645067636205,-57.8183859330354,"IGN","18105","Mercedes","Departamento Mercedes","18",0.109625204073435,"Corrientes"
